{"type":"FeatureCollection","features":[{"type":"Feature","geometry":{"type":"Point","coordinates":[-80.8941703191184,35.4775662399269]},"properties":{"name":"Harris Teeter","OBJECTID":564,"FULL_ADDRESS":"19815 NORTH COVE RD","PID":"00110129","BWID":300163356,"Address":372654,"DateAdded":"2019/01/01 00:00:00+00","DateDeleted":"1970/01/01 00:00:00+00","GlobalID":"{DC1465EE-6740-4B87-81B5-03CC31E43AE7}"}},{"type":"Feature","geometry":{"type":"Point","coordinates":[-80.8600114302022,35.4830218332931]},"properties":{"name":"Food Lion","OBJECTID":5577,"FULL_ADDRESS":"20125 N MAIN ST","PID":"00317714","BWID":300159718,"Address":67267,"DateAdded":"2019/01/01 00:00:00+00","DateDeleted":"1970/01/01 00:00:00+00","GlobalID":"{45059778-BEC1-4CA9-9731-573E24D1BA0A}"}},{"type":"Feature","geometry":{"type":"Point","coordinates":[-80.8602107996467,35.5005208376682]},"properties":{"name":"Harris Teeter","OBJECTID":6031,"FULL_ADDRESS":"431 PENINSULA DR","PID":"00323188","Address":487398,"DateAdded":"2019/01/01 00:00:00+00","DateDeleted":"1970/01/01 00:00:00+00","GlobalID":"{A037022E-C4E7-4616-8F55-1D1DFE3F9876}"}},{"type":"Feature","geometry":{"type":"Point","coordinates":[-80.8617580224904,35.4441764262121]},"properties":{"name":"Harris Teeter","OBJECTID":6886,"FULL_ADDRESS":"9759 SAM FURR RD","PID":"00504207","BWID":300161800,"Address":224302,"DateAdded":"2019/01/01 00:00:00+00","DateDeleted":"1970/01/01 00:00:00+00","GlobalID":"{E6E9DB66-59EF-40C0-B8F7-01C5F318738D}"}},{"type":"Feature","geometry":{"type":"Point","coordinates":[-80.8614060634391,35.4431787930274]},"properties":{"name":"Target","OBJECTID":6899,"FULL_ADDRESS":"9801 SAM FURR RD","PID":"00504218","BWID":300161800,"Address":401393,"DateAdded":"2019/01/01 00:00:00+00","DateDeleted":"1970/01/01 00:00:00+00","GlobalID":"{1E48764E-D4E7-44B0-8E98-844A7BA193A5}"}},{"type":"Feature","geometry":{"type":"Point","coordinates":[-80.8716614358813,35.4440432499332]},"properties":{"name":"Whole Foods Market","OBJECTID":6930,"FULL_ADDRESS":"9129 SAM FURR RD","PID":"00505208","BWID":301920090,"Address":391623,"DateAdded":"2019/01/01 00:00:00+00","DateDeleted":"1970/01/01 00:00:00+00","GlobalID":"{4C6E8441-0742-4389-ACFE-1471FE3669BD}"}},{"type":"Feature","geometry":{"type":"Point","coordinates":[-80.8920529869445,35.4465353890598]},"properties":{"name":"Harris Teeter","OBJECTID":6967,"FULL_ADDRESS":"17001 KENTON DR","PID":"00506108","Address":362878,"DateAdded":"1970/01/01 00:00:00+00","DateDeleted":"2020/10/15 00:00:00+00","GlobalID":"{A4E88BE7-70A4-4678-8994-590F3EDF4B6E}"}},{"type":"Feature","geometry":{"type":"Point","coordinates":[-80.8886080235737,35.4754462685184]},"properties":{"name":"Publix","OBJECTID":8423,"FULL_ADDRESS":"8311 MAGNOLIA ESTATES DR","PID":"00524127","BWID":301971829,"Address":366742,"DateAdded":"2019/01/01 00:00:00+00","DateDeleted":"1970/01/01 00:00:00+00","GlobalID":"{59685A57-6CD2-4350-B875-F6AD75FA029E}"}},{"type":"Feature","geometry":{"type":"Point","coordinates":[-80.8619116906537,35.4091281915469]},"properties":{"name":"Harris Teeter","OBJECTID":20189,"FULL_ADDRESS":"9925 ROSE COMMONS DR","PID":"01715229","BWID":300163360,"Address":393148,"DateAdded":"2019/01/01 00:00:00+00","DateDeleted":"1970/01/01 00:00:00+00","GlobalID":"{41F3BB5F-A398-4F5E-BE29-6B4B41D30AF1}"}},{"type":"Feature","geometry":{"type":"Point","coordinates":[-80.864330686476,35.4084919407352]},"properties":{"name":"Publix","OBJECTID":20203,"FULL_ADDRESS":"9815 ROSE COMMONS DR","PID":"01715263","BWID":301909798,"Address":351310,"DateAdded":"2019/01/01 00:00:00+00","DateDeleted":"1970/01/01 00:00:00+00","GlobalID":"{2FCA6629-E773-4651-8692-744512BE5C9A}"}},{"type":"Feature","geometry":{"type":"Point","coordinates":[-80.8676458016774,35.3568814768832]},"properties":{"name":"Food Lion","OBJECTID":23247,"FULL_ADDRESS":"9548 MT HOLLY-HUNTERSVILLE RD","PID":"02510201","BWID":300178585,"Address":286026,"DateAdded":"2019/01/01 00:00:00+00","DateDeleted":"1970/01/01 00:00:00+00","GlobalID":"{C31CF670-7B57-40CE-8BCA-EE38641ECA74}"}},{"type":"Feature","geometry":{"type":"Point","coordinates":[-80.7810225528929,35.3190506462284]},"properties":{"name":"Harris Teeter","OBJECTID":25297,"FULL_ADDRESS":"2201 W W T HARRIS BV","PID":"02703110","Address":75478,"DateAdded":"1970/01/01 00:00:00+00","DateDeleted":"2020/10/15 00:00:00+00","GlobalID":"{61EF5771-5587-46F5-B37F-91EEFAB04001}"}},{"type":"Feature","geometry":{"type":"Point","coordinates":[-80.7695638946039,35.3434784596713]},"properties":{"name":"The Fresh Market","OBJECTID":33539,"FULL_ADDRESS":"3024 PROSPERITY CHURCH RD","PID":"02936105","Address":100813,"DateAdded":"1970/01/01 00:00:00+00","DateDeleted":"2020/10/15 00:00:00+00","GlobalID":"{437BBE31-8C65-437C-AB26-FF0FA691BF72}"}},{"type":"Feature","geometry":{"type":"Point","coordinates":[-80.9514935522835,35.3190316027723]},"properties":{"name":"Bi-Lo","OBJECTID":38752,"FULL_ADDRESS":"2924 MT HOLLY-HUNTERSVILLE RD","PID":"03113203","BWID":300247410,"Address":338444,"DateAdded":"2019/01/01 00:00:00+00","DateDeleted":"1970/01/01 00:00:00+00","GlobalID":"{517FC506-8835-4E08-9548-10503550956A}"}},{"type":"Feature","geometry":{"type":"Point","coordinates":[-80.9456225477289,35.3226821772631]},"properties":{"name":"Harris Teeter","OBJECTID":41935,"FULL_ADDRESS":"3540 MT HOLLY-HUNTERSVILLE RD","PID":"03301226","BWID":100036977,"Address":342841,"DateAdded":"1970/01/01 00:00:00+00","DateDeleted":"2020/10/15 00:00:00+00","GlobalID":"{E150F3C2-BA07-4CFE-A99D-36EE0D3E83C6}"}},{"type":"Feature","geometry":{"type":"Point","coordinates":[-80.8013539952691,35.3017585420907]},"properties":{"name":"Save-A-Lot","OBJECTID":52573,"FULL_ADDRESS":"2800 W SUGAR CREEK RD","PID":"04320101","Address":92256,"DateAdded":"2019/01/01 00:00:00+00","DateDeleted":"1970/01/01 00:00:00+00","GlobalID":"{6F4B9328-C13A-46F4-93F5-0EB8EA72CF5B}"}},{"type":"Feature","geometry":{"type":"Point","coordinates":[-80.7545588882166,35.3147350115403]},"properties":{"name":"Sam's Club","OBJECTID":57790,"FULL_ADDRESS":"8909 J W CLAY BV","PID":"04720139","BWID":100035064,"Address":210522,"DateAdded":"2019/01/01 00:00:00+00","DateDeleted":"1970/01/01 00:00:00+00","GlobalID":"{3F03917F-05B6-4F2C-A704-8DDD70DFD511}"}},{"type":"Feature","geometry":{"type":"Point","coordinates":[-80.74460201481,35.3138291054022]},"properties":{"name":"Food Lion","OBJECTID":58177,"FULL_ADDRESS":"9323 N TRYON ST","PID":"04729144","BWID":300178576,"Address":320461,"DateAdded":"2019/01/01 00:00:00+00","DateDeleted":"1970/01/01 00:00:00+00","GlobalID":"{A6111D48-1B5C-43C3-B528-26F0AC9BEAD9}"}},{"type":"Feature","geometry":{"type":"Point","coordinates":[-80.7457087555199,35.292595392658]},"properties":{"name":"Target","OBJECTID":60604,"FULL_ADDRESS":"8120 UNIVERSITY CITY BV","PID":"04925112","BWID":300194971,"Address":199210,"DateAdded":"2019/01/01 00:00:00+00","DateDeleted":"1970/01/01 00:00:00+00","GlobalID":"{C74F48C7-D614-4E6A-A10E-6BBFE5074418}"}},{"type":"Feature","geometry":{"type":"Point","coordinates":[-80.7383419279991,35.2962244063402]},"properties":{"name":"Harris Teeter","OBJECTID":60709,"FULL_ADDRESS":"8600 UNIVERSITY CITY BV","PID":"04928201","BWID":100036539,"Address":206418,"DateAdded":"2019/01/01 00:00:00+00","DateDeleted":"1970/01/01 00:00:00+00","GlobalID":"{AACD8CA9-3B4C-447D-8EB2-CD843F8A863B}"}},{"type":"Feature","geometry":{"type":"Point","coordinates":[-80.7472971811724,35.2972634237032]},"properties":{"name":"India Grocers","OBJECTID":60745,"FULL_ADDRESS":"8215 UNIVERSITY CITY BV","PID":"04930128","Address":435617,"DateAdded":"2019/01/01 00:00:00+00","DateDeleted":"1970/01/01 00:00:00+00","GlobalID":"{54C9523F-6F09-4E29-AE8E-E5B8EB1718EE}"}},{"type":"Feature","geometry":{"type":"Point","coordinates":[-80.7001003818756,35.3153496482812]},"properties":{"name":"Food Lion","OBJECTID":65035,"FULL_ADDRESS":"1704 HARRIS HOUSTON RD","PID":"05136178","BWID":300178602,"Address":346005,"DateAdded":"2019/01/01 00:00:00+00","DateDeleted":"1970/01/01 00:00:00+00","GlobalID":"{951941C8-BD4E-4B35-9F74-7D5CE8CFC34C}"}},{"type":"Feature","geometry":{"type":"Point","coordinates":[-80.961613651788,35.2720584472413]},"properties":{"name":"Food Lion","OBJECTID":67417,"FULL_ADDRESS":"9115 SAMLEN LN","PID":"05519102","BWID":301049735,"Address":499951,"DateAdded":"2019/01/01 00:00:00+00","DateDeleted":"1970/01/01 00:00:00+00","GlobalID":"{91F433E8-ADC4-4E27-8C60-FE428251666B}"}},{"type":"Feature","geometry":{"type":"Point","coordinates":[-80.9384634177991,35.2452821721937]},"properties":{"name":"Food Lion","OBJECTID":67997,"FULL_ADDRESS":"2526 LITTLE ROCK RD","PID":"05535135","BWID":300178570,"Address":86519,"DateAdded":"2019/01/01 00:00:00+00","DateDeleted":"1970/01/01 00:00:00+00","GlobalID":"{E210D3AD-CB8B-49FE-A508-75E95A610811}"}},{"type":"Feature","geometry":{"type":"Point","coordinates":[-80.8949090401434,35.2260699073103]},"properties":{"name":"Walmart Supercenter","OBJECTID":72112,"FULL_ADDRESS":"3240 WILKINSON BV","PID":"06101134","BWID":300725460,"Address":460190,"DateAdded":"2019/01/01 00:00:00+00","DateDeleted":"1970/01/01 00:00:00+00","GlobalID":"{B4CC2457-D4A7-4DC6-BBD0-BF4E33A051FA}"}},{"type":"Feature","geometry":{"type":"Point","coordinates":[-80.8981175957948,35.2401561853118]},"properties":{"name":"Harveys","OBJECTID":73124,"FULL_ADDRESS":"1620 ASHLEY RD","PID":"06113101","BWID":300247409,"Address":370814,"DateAdded":"2019/01/01 00:00:00+00","DateDeleted":"1970/01/01 00:00:00+00","GlobalID":"{47777A60-D8ED-4149-A331-A844143678D9}"}},{"type":"Feature","geometry":{"type":"Point","coordinates":[-80.9039614150537,35.246110331659]},"properties":{"name":"Food Lion","OBJECTID":73158,"FULL_ADDRESS":"4709 TUCKASEEGEE RD","PID":"06116102","BWID":300300367,"Address":135433,"DateAdded":"2019/01/01 00:00:00+00","DateDeleted":"1970/01/01 00:00:00+00","GlobalID":"{4E19ED82-6346-4615-BC9A-8B58579411DB}"}},{"type":"Feature","geometry":{"type":"Point","coordinates":[-80.880315454938,35.2370374469917]},"properties":{"name":"Aldi","OBJECTID":75352,"FULL_ADDRESS":"2526 FREEDOM DR","PID":"06501573","Address":87309,"DateAdded":"2019/01/01 00:00:00+00","DateDeleted":"1970/01/01 00:00:00+00","GlobalID":"{3C184211-3EAE-4CF6-AB50-3DB121B5AF78}"}},{"type":"Feature","geometry":{"type":"Point","coordinates":[-80.8855567660293,35.2365683808798]},"properties":{"name":"Compare Foods","OBJECTID":77509,"FULL_ADDRESS":"2701 FREEDOM DR","PID":"06710317","Address":89923,"DateAdded":"2019/01/01 00:00:00+00","DateDeleted":"1970/01/01 00:00:00+00","GlobalID":"{801F6798-3A39-47DB-A626-84957C6CEC34}"}},{"type":"Feature","geometry":{"type":"Point","coordinates":[-80.8562509875074,35.2641786940291]},"properties":{"name":"Food Lion","OBJECTID":79778,"FULL_ADDRESS":"2123 BEATTIES FORD RD","PID":"06917122","BWID":300178594,"Address":284722,"DateAdded":"2019/01/01 00:00:00+00","DateDeleted":"1970/01/01 00:00:00+00","GlobalID":"{7A5DCBC8-ACEA-4ED8-B496-D4111C710B0D}"}},{"type":"Feature","geometry":{"type":"Point","coordinates":[-80.8291488211211,35.2472479478788]},"properties":{"name":"Wayne's Super Market","OBJECTID":86264,"FULL_ADDRESS":"2050 N GRAHAM ST","PID":"07910101","BWID":300197487,"Address":402545,"DateAdded":"2019/01/01 00:00:00+00","DateDeleted":"1970/01/01 00:00:00+00","GlobalID":"{9E6306B8-C7B9-4A3E-9A00-99FA0B0EEB94}"}},{"type":"Feature","geometry":{"type":"Point","coordinates":[-80.7995548300328,35.2390488883762]},"properties":{"name":"Food Lion","OBJECTID":90096,"FULL_ADDRESS":"3009 THE PLAZA","PID":"08316901","BWID":300178599,"Address":97058,"DateAdded":"2019/01/01 00:00:00+00","DateDeleted":"1970/01/01 00:00:00+00","GlobalID":"{169007FB-2438-4E09-A214-9367B28F79B3}"}},{"type":"Feature","geometry":{"type":"Point","coordinates":[-80.7935296188195,35.2576386256724]},"properties":{"name":"Compare Foods","OBJECTID":93935,"FULL_ADDRESS":"4316 N TRYON ST","PID":"09105115","BWID":100011998,"Address":347976,"DateAdded":"2019/01/01 00:00:00+00","DateDeleted":"1970/01/01 00:00:00+00","GlobalID":"{222B80E1-869C-4AA3-87F8-63DC5FDB9368}"}},{"type":"Feature","geometry":{"type":"Point","coordinates":[-80.795015889273,35.2414714497069]},"properties":{"name":"Giant Penny ","OBJECTID":95011,"FULL_ADDRESS":"3330 THE PLAZA","PID":"09305534","BWID":100038725,"Address":107412,"DateAdded":"2019/01/01 00:00:00+00","DateDeleted":"1970/01/01 00:00:00+00","GlobalID":"{9F3E4E1C-4E1A-4B9C-8F12-88DDA80E96B2}"}},{"type":"Feature","geometry":{"type":"Point","coordinates":[-80.7784385980478,35.2520766011555]},"properties":{"name":"Save-A-Lot","OBJECTID":99639,"FULL_ADDRESS":"4529 THE PLAZA","PID":"09713101","BWID":300299275,"Address":362139,"DateAdded":"2019/01/01 00:00:00+00","DateDeleted":"1970/01/01 00:00:00+00","GlobalID":"{4D6408EB-E699-477A-85A4-B278D4260843}"}},{"type":"Feature","geometry":{"type":"Point","coordinates":[-80.7796656691702,35.2485932049179]},"properties":{"name":"Asian Market","OBJECTID":101030,"FULL_ADDRESS":"4430 THE PLAZA","PID":"09902698","BWID":300247417,"Address":368321,"DateAdded":"2019/01/01 00:00:00+00","DateDeleted":"1970/01/01 00:00:00+00","GlobalID":"{A864D4FD-D201-4A98-8BCF-9776607CA807}"}},{"type":"Feature","geometry":{"type":"Point","coordinates":[-80.7372314236483,35.235411754072]},"properties":{"name":"Compare Foods","OBJECTID":103531,"FULL_ADDRESS":"3112 MILTON RD","PID":"09923102","BWID":300648373,"Address":437601,"DateAdded":"2019/01/01 00:00:00+00","DateDeleted":"1970/01/01 00:00:00+00","GlobalID":"{3955844B-1DBE-4F9C-A62B-33A0FBC7B797}"}},{"type":"Feature","geometry":{"type":"Point","coordinates":[-80.7275316060422,35.2249980068698]},"properties":{"name":"Food Lion","OBJECTID":103951,"FULL_ADDRESS":"7004 E W T HARRIS BV","PID":"09931116","BWID":300178577,"Address":438275,"DateAdded":"2019/01/01 00:00:00+00","DateDeleted":"1970/01/01 00:00:00+00","GlobalID":"{620D37E9-C7AD-4AF4-BB37-6703BB23DB39}"}},{"type":"Feature","geometry":{"type":"Point","coordinates":[-80.7680306547426,35.214167897733]},"properties":{"name":"Sav-Way","OBJECTID":106004,"FULL_ADDRESS":"4459 CENTRAL AV","PID":10118305,"BWID":100014759,"Address":419892,"DateAdded":"2019/01/01 00:00:00+00","DateDeleted":"1970/01/01 00:00:00+00","GlobalID":"{4F0BA519-5347-4A13-9258-E6A4D05F345B}"}},{"type":"Feature","geometry":{"type":"Point","coordinates":[-80.7381473858316,35.2039411664628]},"properties":{"name":"Save-A-Lot","OBJECTID":107516,"FULL_ADDRESS":"5669 FARM POND LN","PID":10316112,"Address":153615,"DateAdded":"1970/01/01 00:00:00+00","DateDeleted":"2020/10/15 00:00:00+00","GlobalID":"{7800F8AD-CA00-4368-A1E3-28A2AA6050AA}"}},{"type":"Feature","geometry":{"type":"Point","coordinates":[-80.7284753548753,35.2729412058234]},"properties":{"name":"Food Lion","OBJECTID":108634,"FULL_ADDRESS":"2931 E W T HARRIS BV","PID":10508206,"BWID":300722378,"Address":469474,"DateAdded":"2019/01/01 00:00:00+00","DateDeleted":"1970/01/01 00:00:00+00","GlobalID":"{663D62DD-1769-4743-96DE-2B7D27BBF3D5}"}},{"type":"Feature","geometry":{"type":"Point","coordinates":[-80.7505547031033,35.2484627514963]},"properties":{"name":"Mas Por Menos","OBJECTID":109398,"FULL_ADDRESS":"6200 THE PLAZA","PID":10704116,"BWID":300185180,"Address":163783,"DateAdded":"2019/01/01 00:00:00+00","DateDeleted":"1970/01/01 00:00:00+00","GlobalID":"{3B971F96-2DB1-40F3-B986-BFBFBDCAE7A4}"}},{"type":"Feature","geometry":{"type":"Point","coordinates":[-80.7342744160164,35.2576146989891]},"properties":{"name":"Food Lion","OBJECTID":109878,"FULL_ADDRESS":"7400 THE PLAZA","PID":10709110,"BWID":300178587,"Address":292705,"DateAdded":"2019/01/01 00:00:00+00","DateDeleted":"1970/01/01 00:00:00+00","GlobalID":"{6F18AD85-5869-4D57-9690-1B55C0B8A743}"}},{"type":"Feature","geometry":{"type":"Point","coordinates":[-80.6902922342019,35.2131275458629]},"properties":{"name":"Food Lion","OBJECTID":113448,"FULL_ADDRESS":"9021 ALBEMARLE RD","PID":10909209,"BWID":300178571,"Address":363484,"DateAdded":"2019/01/01 00:00:00+00","DateDeleted":"1970/01/01 00:00:00+00","GlobalID":"{4C91FF9E-BB82-4C55-A995-49FABD29D2C1}"}},{"type":"Feature","geometry":{"type":"Point","coordinates":[-80.6890006273804,35.2134945951653]},"properties":{"name":"Wal-Mart Super Center","OBJECTID":113449,"FULL_ADDRESS":"9101 ALBEMARLE RD","PID":10909210,"BWID":100037794,"Address":214526,"DateAdded":"2019/01/01 00:00:00+00","DateDeleted":"1970/01/01 00:00:00+00","GlobalID":"{910FF9AC-1161-4FD6-91EE-B607F9E7DD0E}"}},{"type":"Feature","geometry":{"type":"Point","coordinates":[-80.6899285922646,35.1891419000193]},"properties":{"name":"Food Lion","OBJECTID":115121,"FULL_ADDRESS":"6275 WILSON GROVE RD","PID":10933108,"BWID":300178582,"Address":355401,"DateAdded":"2019/01/01 00:00:00+00","DateDeleted":"1970/01/01 00:00:00+00","GlobalID":"{90F53257-C946-4F02-BD36-889F9D725A48}"}},{"type":"Feature","geometry":{"type":"Point","coordinates":[-80.8629972795652,35.2065480101842]},"properties":{"name":"Publix","OBJECTID":119939,"FULL_ADDRESS":"2222 SOUTH BV","PID":12103104,"BWID":301976553,"Address":235762,"DateAdded":"2019/01/01 00:00:00+00","DateDeleted":"1970/01/01 00:00:00+00","GlobalID":"{50E2BE51-1914-47B8-9F95-41C9ABD1A114}"}},{"type":"Feature","geometry":{"type":"Point","coordinates":[-80.8446311218562,35.2035647374021]},"properties":{"name":"Harris Teeter","OBJECTID":122000,"FULL_ADDRESS":"1227 EAST BV","PID":12312713,"BWID":100036509,"Address":307894,"DateAdded":"2019/01/01 00:00:00+00","DateDeleted":"1970/01/01 00:00:00+00","GlobalID":"{CBF990CD-62AD-494D-8CBD-A1B498682BD4}"}},{"type":"Feature","geometry":{"type":"Point","coordinates":[-80.8344874588338,35.2147775803206]},"properties":{"name":"Target","OBJECTID":122168,"FULL_ADDRESS":"900 METROPOLITAN AV","PID":"12509C99","BWID":300989746,"Address":491459,"DateAdded":"2019/01/01 00:00:00+00","DateDeleted":"1970/01/01 00:00:00+00","GlobalID":"{22578699-2DC9-481E-BBD3-C3123C54E4A9}"}},{"type":"Feature","geometry":{"type":"Point","coordinates":[-80.783031316845,35.2132029467544]},"properties":{"name":"Atlantic Farmers Market","OBJECTID":125105,"FULL_ADDRESS":"3122 EASTWAY DR","PID":12909122,"Address":101234,"DateAdded":"2019/01/01 00:00:00+00","DateDeleted":"1970/01/01 00:00:00+00","GlobalID":"{21293045-44F8-4990-AE28-E3E93535E40F}"}},{"type":"Feature","geometry":{"type":"Point","coordinates":[-80.780376122549,35.2109144045683]},"properties":{"name":"Food Lion","OBJECTID":125709,"FULL_ADDRESS":"3207 EASTWAY DR","PID":13106231,"BWID":300178569,"Address":421849,"DateAdded":"2019/01/01 00:00:00+00","DateDeleted":"1970/01/01 00:00:00+00","GlobalID":"{9C03EFA2-9224-414B-8F83-7A3952940C0F}"}},{"type":"Feature","geometry":{"type":"Point","coordinates":[-80.7377149511341,35.2015620287121]},"properties":{"name":"Harveys","OBJECTID":128283,"FULL_ADDRESS":"6320 ALBEMARLE RD","PID":13317130,"Address":167196,"DateAdded":"1970/01/01 00:00:00+00","DateDeleted":"2020/10/15 00:00:00+00","GlobalID":"{087410E7-6346-4575-AB71-53D73A7D442B}"}},{"type":"Feature","geometry":{"type":"Point","coordinates":[-80.7344411755557,35.2012765069482]},"properties":{"name":"Aldi","OBJECTID":128284,"FULL_ADDRESS":"6454 ALBEMARLE RD","PID":13317131,"Address":370784,"DateAdded":"2019/01/01 00:00:00+00","DateDeleted":"1970/01/01 00:00:00+00","GlobalID":"{74031E49-A800-4539-93E7-5596A18F5A06}"}},{"type":"Feature","geometry":{"type":"Point","coordinates":[-80.7273191165629,35.2007656206628]},"properties":{"name":"Walmart Neighborhood Market","OBJECTID":129031,"FULL_ADDRESS":"8800 E W T HARRIS BV","PID":13325204,"BWID":100010296,"Address":150811,"DateAdded":"2019/01/01 00:00:00+00","DateDeleted":"1970/01/01 00:00:00+00","GlobalID":"{B6FAF83B-F674-4FF7-A296-C29DF15B45EA}"}},{"type":"Feature","geometry":{"type":"Point","coordinates":[-80.6609378194948,35.1726512071709]},"properties":{"name":"Harris Teeter","OBJECTID":132232,"FULL_ADDRESS":"7036 BRIGHTON PARK DR","PID":13538169,"BWID":300407555,"Address":448088,"DateAdded":"2019/01/01 00:00:00+00","DateDeleted":"1970/01/01 00:00:00+00","GlobalID":"{816D9399-B57E-47BE-828D-5881AAE79150}"}},{"type":"Feature","geometry":{"type":"Point","coordinates":[-80.8447978597144,35.1998384443173]},"properties":{"name":"The Fresh Market ","OBJECTID":143421,"FULL_ADDRESS":"1408 EAST BV","PID":15101507,"BWID":302045612,"Address":383449,"DateAdded":"2019/01/01 00:00:00+00","DateDeleted":"1970/01/01 00:00:00+00","GlobalID":"{C9455499-2035-4025-B5EA-C2848AD503C4}"}},{"type":"Feature","geometry":{"type":"Point","coordinates":[-80.797133580172,35.192171640472]},"properties":{"name":"Food Lion","OBJECTID":147622,"FULL_ADDRESS":"931 N WENDOVER RD","PID":15705136,"BWID":300178601,"Address":218282,"DateAdded":"2019/01/01 00:00:00+00","DateDeleted":"1970/01/01 00:00:00+00","GlobalID":"{A54A07E6-1228-4CBE-A3EF-46F4F5CDB974}"}},{"type":"Feature","geometry":{"type":"Point","coordinates":[-80.7291842975159,35.1845334130477]},"properties":{"name":"Food Lion","OBJECTID":151975,"FULL_ADDRESS":"8100 IDLEWILD RD","PID":16503601,"BWID":300178597,"Address":198442,"DateAdded":"2019/01/01 00:00:00+00","DateDeleted":"1970/01/01 00:00:00+00","GlobalID":"{165F42F9-E4EB-49CC-A793-74C39810D75F}"}},{"type":"Feature","geometry":{"type":"Point","coordinates":[-80.8788212475739,35.1644319515984]},"properties":{"name":"Aldi","OBJECTID":156351,"FULL_ADDRESS":"5550 OLD PINEVILLE RD","PID":16908206,"Address":152555,"DateAdded":"2019/01/01 00:00:00+00","DateDeleted":"1970/01/01 00:00:00+00","GlobalID":"{87DB383F-4951-42D1-B7B0-7C26F465BBC0}"}},{"type":"Feature","geometry":{"type":"Point","coordinates":[-80.875423924093,35.1735668862831]},"properties":{"name":"Mas Por Menos","OBJECTID":157885,"FULL_ADDRESS":"4805 SOUTH BV","PID":17105203,"Address":447713,"DateAdded":"2019/01/01 00:00:00+00","DateDeleted":"1970/01/01 00:00:00+00","GlobalID":"{14153FDE-AB06-4E6A-B917-A919FC4339F3}"}},{"type":"Feature","geometry":{"type":"Point","coordinates":[-80.8750526807776,35.1558364294048]},"properties":{"name":"Food Lion","OBJECTID":160196,"FULL_ADDRESS":"5831 SOUTH BV","PID":17301201,"BWID":300178581,"Address":240878,"DateAdded":"2019/01/01 00:00:00+00","DateDeleted":"1970/01/01 00:00:00+00","GlobalID":"{96AAFD8B-E35B-433F-9165-A807F4F3B911}"}},{"type":"Feature","geometry":{"type":"Point","coordinates":[-80.8504051548648,35.1756321403239]},"properties":{"name":"Harris Teeter","OBJECTID":164633,"FULL_ADDRESS":"4101 PARK RD #290","PID":17518101,"BWID":100036523,"Address":122564,"DateAdded":"2019/01/01 00:00:00+00","DateDeleted":"1970/01/01 00:00:00+00","GlobalID":"{3CA987E1-4704-483E-A36E-1F82E60C9D88}"}},{"type":"Feature","geometry":{"type":"Point","coordinates":[-80.801121790008,35.1775306707191]},"properties":{"name":"Harris Teeter","OBJECTID":167765,"FULL_ADDRESS":"112 S SHARON AMITY RD","PID":18112403,"BWID":100036507,"Address":352039,"DateAdded":"2019/01/01 00:00:00+00","DateDeleted":"1970/01/01 00:00:00+00","GlobalID":"{1D1EFECD-28C2-438A-8D46-D38998D8F962}"}},{"type":"Feature","geometry":{"type":"Point","coordinates":[-80.8257994666307,35.1527046167879]},"properties":{"name":"Harris Teeter","OBJECTID":169375,"FULL_ADDRESS":"6701 MORRISON BV","PID":18317599,"BWID":100036527,"Address":174774,"DateAdded":"2019/01/01 00:00:00+00","DateDeleted":"1970/01/01 00:00:00+00","GlobalID":"{62CFDA63-CB12-4658-BD03-7185C2CB40B6}"}},{"type":"Feature","geometry":{"type":"Point","coordinates":[-80.7946583276445,35.1565457869545]},"properties":{"name":"The Fresh Market","OBJECTID":170775,"FULL_ADDRESS":"4223 PROVIDENCE RD","PID":18512117,"BWID":300178760,"Address":126382,"DateAdded":"2019/01/01 00:00:00+00","DateDeleted":"1970/01/01 00:00:00+00","GlobalID":"{700139A0-4AA0-48E4-9C51-20C8C26AAEDB}"}},{"type":"Feature","geometry":{"type":"Point","coordinates":[-80.7090843049199,35.1729199542901]},"properties":{"name":"Harris Teeter","OBJECTID":177290,"FULL_ADDRESS":"5706 WYALONG DR","PID":19304368,"BWID":100036538,"Address":465704,"DateAdded":"2019/01/01 00:00:00+00","DateDeleted":"1970/01/01 00:00:00+00","GlobalID":"{79D5848E-303B-4B4A-B6ED-364625B01CF7}"}},{"type":"Feature","geometry":{"type":"Point","coordinates":[-80.7345976093479,35.1372294969733]},"properties":{"name":"Healthy Home Market","OBJECTID":177614,"FULL_ADDRESS":"1816 GALLERIA BV","PID":19310101,"BWID":300168613,"Address":453804,"DateAdded":"2019/01/01 00:00:00+00","DateDeleted":"1970/01/01 00:00:00+00","GlobalID":"{0BA709BF-8AB5-406F-9D9D-3BF981994513}"}},{"type":"Feature","geometry":{"type":"Point","coordinates":[-80.738711732588,35.1406467473175]},"properties":{"name":"Harris Teeter","OBJECTID":177635,"FULL_ADDRESS":"1621 SARDIS RD N","PID":19310206,"BWID":100007349,"Address":51508,"DateAdded":"2019/01/01 00:00:00+00","DateDeleted":"1970/01/01 00:00:00+00","GlobalID":"{E27635DD-C298-4876-ADA9-037648A7E53E}"}},{"type":"Feature","geometry":{"type":"Point","coordinates":[-80.70606283343,35.1222710475823]},"properties":{"name":"Target","OBJECTID":178370,"FULL_ADDRESS":"1900 MATTHEWS TOWNSHIP PY","PID":19329301,"BWID":100031275,"Address":61395,"DateAdded":"2019/01/01 00:00:00+00","DateDeleted":"1970/01/01 00:00:00+00","GlobalID":"{F046F6E3-44BD-4ABF-877F-D62B0E1DD14E}"}},{"type":"Feature","geometry":{"type":"Point","coordinates":[-80.7108849539063,35.1357730528779]},"properties":{"name":"Sam's Club","OBJECTID":178393,"FULL_ADDRESS":"1801 WINDSOR SQUARE DR","PID":19330303,"BWID":100031493,"Address":57657,"DateAdded":"2019/01/01 00:00:00+00","DateDeleted":"1970/01/01 00:00:00+00","GlobalID":"{2AB07A88-3D65-4289-9D84-31ECF15AD028}"}},{"type":"Feature","geometry":{"type":"Point","coordinates":[-80.7047448022851,35.1301025429416]},"properties":{"name":"Costco","OBJECTID":181242,"FULL_ADDRESS":"2125 MATTHEWS TOWNSHIP PY","PID":19352115,"BWID":300014292,"Address":328366,"DateAdded":"2019/01/01 00:00:00+00","DateDeleted":"1970/01/01 00:00:00+00","GlobalID":"{42F3D35F-0F56-4A3B-98A6-40B17D7D1D76}"}},{"type":"Feature","geometry":{"type":"Point","coordinates":[-80.9406709288389,35.1345159117412]},"properties":{"name":"Food Lion","OBJECTID":186241,"FULL_ADDRESS":"9112 S TRYON ST","PID":20112310,"BWID":300178593,"Address":388405,"DateAdded":"2019/01/01 00:00:00+00","DateDeleted":"1970/01/01 00:00:00+00","GlobalID":"{D2010A01-F9B8-4D3E-A21B-6C98AC317200}"}},{"type":"Feature","geometry":{"type":"Point","coordinates":[-80.9560266568409,35.1198812480745]},"properties":{"name":"Aldi","OBJECTID":186550,"FULL_ADDRESS":"10710 S TRYON ST","PID":20118148,"Address":372814,"DateAdded":"2019/01/01 00:00:00+00","DateDeleted":"1970/01/01 00:00:00+00","GlobalID":"{3C907358-0637-477A-83C4-825F7EAE6FA6}"}},{"type":"Feature","geometry":{"type":"Point","coordinates":[-80.9879868852727,35.104933883027]},"properties":{"name":"Publix","OBJECTID":186984,"FULL_ADDRESS":"12810 S TRYON ST","PID":20123115,"BWID":301917100,"Address":344955,"DateAdded":"2019/01/01 00:00:00+00","DateDeleted":"1970/01/01 00:00:00+00","GlobalID":"{0A25E128-B802-41E6-8224-5C98284D4CDB}"}},{"type":"Feature","geometry":{"type":"Point","coordinates":[-80.9298866464946,35.1460223170382]},"properties":{"name":"Publix","OBJECTID":187794,"FULL_ADDRESS":"8120 S TRYON ST","PID":20130112,"BWID":301914351,"Address":199214,"DateAdded":"2019/01/01 00:00:00+00","DateDeleted":"1970/01/01 00:00:00+00","GlobalID":"{79EC536F-F7E6-41FC-B543-738E3D015CC5}"}},{"type":"Feature","geometry":{"type":"Point","coordinates":[-80.9340186067417,35.1465773575398]},"properties":{"name":"Walmart Supercenter","OBJECTID":187806,"FULL_ADDRESS":"8180 S TRYON ST","PID":20130124,"BWID":301914351,"Address":379305,"DateAdded":"2019/01/01 00:00:00+00","DateDeleted":"1970/01/01 00:00:00+00","GlobalID":"{C9DE97C2-589A-4B87-960E-7257A1655940}"}},{"type":"Feature","geometry":{"type":"Point","coordinates":[-80.8863994217579,35.0901673545444]},"properties":{"name":"India Grocers","OBJECTID":191042,"FULL_ADDRESS":"509 N POLK ST","PID":20508103,"Address":388738,"DateAdded":"2019/01/01 00:00:00+00","DateDeleted":"1970/01/01 00:00:00+00","GlobalID":"{78DEE4E4-55B5-471A-A5B0-3AB0C37FBFB8}"}},{"type":"Feature","geometry":{"type":"Point","coordinates":[-80.8782637861607,35.1355928392422]},"properties":{"name":"Compare Foods","OBJECTID":191433,"FULL_ADDRESS":"818 E ARROWOOD RD","PID":20517306,"BWID":300619854,"Address":200031,"DateAdded":"2019/01/01 00:00:00+00","DateDeleted":"1970/01/01 00:00:00+00","GlobalID":"{1DA69AAD-B16D-4676-9EB6-E829BE206B50}"}},{"type":"Feature","geometry":{"type":"Point","coordinates":[-80.8787335935928,35.1083590901392]},"properties":{"name":"Target","OBJECTID":191675,"FULL_ADDRESS":"9531 SOUTH BV","PID":20707108,"BWID":300194972,"Address":221705,"DateAdded":"2019/01/01 00:00:00+00","DateDeleted":"1970/01/01 00:00:00+00","GlobalID":"{AEEFB52F-C019-49ED-B938-A837EA152716}"}},{"type":"Feature","geometry":{"type":"Point","coordinates":[-80.8790809508108,35.0901935115883]},"properties":{"name":"Kmart","OBJECTID":191696,"FULL_ADDRESS":"10500 CENTRUM PY","PID":20708117,"Address":8020,"DateAdded":"1970/01/01 00:00:00+00","DateDeleted":"2020/10/15 00:00:00+00","GlobalID":"{24D9312B-28D6-4AEF-B54A-2F0EA9C090A7}"}},{"type":"Feature","geometry":{"type":"Point","coordinates":[-80.8772499075986,35.0880673902452]},"properties":{"name":"Patel Brothers","OBJECTID":191783,"FULL_ADDRESS":"10701 CENTRUM PY","PID":20709608,"BWID":301639394,"Address":9727,"DateAdded":"2019/01/01 00:00:00+00","DateDeleted":"1970/01/01 00:00:00+00","GlobalID":"{A1D92421-D8AC-4FCD-97B7-BAA0CA05ECCF}"}},{"type":"Feature","geometry":{"type":"Point","coordinates":[-80.8245179670797,35.1171241736064]},"properties":{"name":"Harris Teeter","OBJECTID":195176,"FULL_ADDRESS":"4100 CARMEL RD","PID":20917102,"BWID":100036531,"Address":122361,"DateAdded":"2019/01/01 00:00:00+00","DateDeleted":"1970/01/01 00:00:00+00","GlobalID":"{66FB5731-B4F2-49F1-8288-3ADF136F6D7A}"}},{"type":"Feature","geometry":{"type":"Point","coordinates":[-80.8063299187596,35.1065559780702]},"properties":{"name":"Harris Teeter","OBJECTID":199883,"FULL_ADDRESS":"7823 COLONY RD","PID":21124105,"Address":390070,"DateAdded":"2019/01/01 00:00:00+00","DateDeleted":"1970/01/01 00:00:00+00","GlobalID":"{79D0E0AF-1B55-46CA-90A7-5BB288D28867}"}},{"type":"Feature","geometry":{"type":"Point","coordinates":[-80.7809856519095,35.1089137559543]},"properties":{"name":"Food Lion","OBJECTID":201264,"FULL_ADDRESS":"7400 CANDLEWYCK LN","PID":21131975,"BWID":300178575,"Address":188436,"DateAdded":"2019/01/01 00:00:00+00","DateDeleted":"1970/01/01 00:00:00+00","GlobalID":"{A726796C-8AA6-42B8-A3D8-68D392E16294}"}},{"type":"Feature","geometry":{"type":"Point","coordinates":[-80.7289098645036,35.1207947821082]},"properties":{"name":"Aldi","OBJECTID":204395,"FULL_ADDRESS":"555 W JOHN ST","PID":21301119,"Address":361628,"DateAdded":"2019/01/01 00:00:00+00","DateDeleted":"1970/01/01 00:00:00+00","GlobalID":"{95E23BBE-B8C9-4852-9E10-1D5F86DD85BE}"}},{"type":"Feature","geometry":{"type":"Point","coordinates":[-80.9850865839792,35.1003644977509]},"properties":{"name":"Target","OBJECTID":211569,"FULL_ADDRESS":"12830 WALKER BRANCH DR","PID":21906111,"BWID":300704097,"Address":468900,"DateAdded":"2019/01/01 00:00:00+00","DateDeleted":"1970/01/01 00:00:00+00","GlobalID":"{C3A0A45E-45CA-4E9C-8E06-E0523C7FEE10}"}},{"type":"Feature","geometry":{"type":"Point","coordinates":[-80.8857460140454,35.0825842324995]},"properties":{"name":"Food Lion","OBJECTID":214575,"FULL_ADDRESS":"317 S POLK ST","PID":22113202,"BWID":100037580,"Address":439468,"DateAdded":"2019/01/01 00:00:00+00","DateDeleted":"1970/01/01 00:00:00+00","GlobalID":"{29AC6E0D-B2F5-4C5D-8F51-93A429396753}"}},{"type":"Feature","geometry":{"type":"Point","coordinates":[-80.8718815126646,35.0869552537713]},"properties":{"name":"Bi-Lo","OBJECTID":214597,"FULL_ADDRESS":"9101 PINEVILLE-MATTHEWS RD","PID":22114203,"Address":214022,"DateAdded":"1970/01/01 00:00:00+00","DateDeleted":"2020/10/15 00:00:00+00","GlobalID":"{FDB3B59F-6D84-435A-BDAF-758ED9D25440}"}},{"type":"Feature","geometry":{"type":"Point","coordinates":[-80.848553688608,35.0864791599572]},"properties":{"name":"The Fresh Market","OBJECTID":217518,"FULL_ADDRESS":"7625 PINEVILLE-MATTHEWS RD","PID":22144110,"BWID":300178761,"Address":359026,"DateAdded":"2019/01/01 00:00:00+00","DateDeleted":"1970/01/01 00:00:00+00","GlobalID":"{4C68EE5D-7AF8-4BE0-8397-65B2BD4DC7E0}"}},{"type":"Feature","geometry":{"type":"Point","coordinates":[-80.8767338465769,35.0744992290874]},"properties":{"name":"BJ's Wholesale Club","OBJECTID":218022,"FULL_ADDRESS":"11715 CAROLINA PLACE PY","PID":22151304,"BWID":300172859,"Address":344579,"DateAdded":"2019/01/01 00:00:00+00","DateDeleted":"1970/01/01 00:00:00+00","GlobalID":"{615204E8-70EA-4E49-A6F6-1E425AB900CA}"}},{"type":"Feature","geometry":{"type":"Point","coordinates":[-80.8489983449847,35.0531366353321]},"properties":{"name":"Harris Teeter","OBJECTID":219482,"FULL_ADDRESS":"15007 JOHN J DELANEY DR","PID":22317207,"BWID":100036948,"Address":345602,"DateAdded":"2019/01/01 00:00:00+00","DateDeleted":"1970/01/01 00:00:00+00","GlobalID":"{3CADCF43-BF29-42C6-A2AF-F33589D81145}"}},{"type":"Feature","geometry":{"type":"Point","coordinates":[-80.841174046227,35.0691106173783]},"properties":{"name":"Earth Fare ","OBJECTID":220167,"FULL_ADDRESS":"12235 NORTH COMMUNITY HOUSE RD","PID":22323109,"Address":449872,"DateAdded":"1970/01/01 00:00:00+00","DateDeleted":"2020/10/15 00:00:00+00","GlobalID":"{FE317399-4C67-4ABF-B7FB-166A056DCD56}"}},{"type":"Feature","geometry":{"type":"Point","coordinates":[-80.8156149409418,35.0532888728245]},"properties":{"name":"Bi-Lo","OBJECTID":220579,"FULL_ADDRESS":"8620 CAMFIELD ST","PID":22328431,"Address":363185,"DateAdded":"1970/01/01 00:00:00+00","DateDeleted":"2020/10/15 00:00:00+00","GlobalID":"{478B9E6B-66FD-4977-90FE-E3EF215DF7AE}"}},{"type":"Feature","geometry":{"type":"Point","coordinates":[-80.8166781985456,35.0599180027126]},"properties":{"name":"Harris Teeter","OBJECTID":223972,"FULL_ADDRESS":"7852 REA RD","PID":22504119,"BWID":100036516,"Address":339645,"DateAdded":"2019/01/01 00:00:00+00","DateDeleted":"1970/01/01 00:00:00+00","GlobalID":"{06158432-731E-45BC-94A4-6E9E9035C5BB}"}},{"type":"Feature","geometry":{"type":"Point","coordinates":[-80.8161314434816,35.0589286357816]},"properties":{"name":"Target","OBJECTID":223976,"FULL_ADDRESS":"7860 REA RD","PID":22504123,"BWID":100036516,"Address":195359,"DateAdded":"2019/01/01 00:00:00+00","DateDeleted":"1970/01/01 00:00:00+00","GlobalID":"{A76DD386-1C2E-40CE-8BE0-46D43C14765D}"}},{"type":"Feature","geometry":{"type":"Point","coordinates":[-80.7717496029171,35.0664586059776]},"properties":{"name":"Harris Teeter","OBJECTID":224389,"FULL_ADDRESS":"10616 PROVIDENCE RD","PID":22511230,"BWID":100024820,"Address":364775,"DateAdded":"2019/01/01 00:00:00+00","DateDeleted":"1970/01/01 00:00:00+00","GlobalID":"{825774B2-6819-448D-8B9E-83A03F03E2F5}"}},{"type":"Feature","geometry":{"type":"Point","coordinates":[-80.7846331239807,35.0963283054777]},"properties":{"name":"Harris Teeter","OBJECTID":224740,"FULL_ADDRESS":"3333 PINEVILLE-MATTHEWS RD","PID":22515104,"BWID":100036537,"Address":365342,"DateAdded":"2019/01/01 00:00:00+00","DateDeleted":"1970/01/01 00:00:00+00","GlobalID":"{21DDF78A-7120-4AE3-8330-C2A71CEA5AA0}"}},{"type":"Feature","geometry":{"type":"Point","coordinates":[-80.8180661002736,35.0787112062115]},"properties":{"name":"Trader Joe's","OBJECTID":227531,"FULL_ADDRESS":"6418 REA RD","PID":22551195,"BWID":300769855,"Address":297298,"DateAdded":"2019/01/01 00:00:00+00","DateDeleted":"1970/01/01 00:00:00+00","GlobalID":"{871F6835-93C9-43C1-BB25-F6DC1C5D312A}"}},{"type":"Feature","geometry":{"type":"Point","coordinates":[-80.7301317772547,35.0822182085695]},"properties":{"name":"Publix","OBJECTID":233386,"FULL_ADDRESS":"3110 FINCHER FARM RD","PID":22756299,"BWID":301840101,"Address":476649,"DateAdded":"2019/01/01 00:00:00+00","DateDeleted":"1970/01/01 00:00:00+00","GlobalID":"{4D8FE50F-BCC3-4A20-A108-33D6507F39B7}"}},{"type":"Feature","geometry":{"type":"Point","coordinates":[-80.8067143516144,35.0363424224109]},"properties":{"name":"Harris Teeter","OBJECTID":235266,"FULL_ADDRESS":"9720 REA RD","PID":22908169,"BWID":300775341,"Address":465607,"DateAdded":"2019/01/01 00:00:00+00","DateDeleted":"1970/01/01 00:00:00+00","GlobalID":"{35487F6A-21E1-44E5-8E9B-E81EA6AE0FC2}"}},{"type":"Feature","geometry":{"type":"Point","coordinates":[-80.8084839274799,35.0374893960569]},"properties":{"name":"Target","OBJECTID":235277,"FULL_ADDRESS":"9870 REA RD","PID":22908174,"BWID":300853833,"Address":466305,"DateAdded":"2019/01/01 00:00:00+00","DateDeleted":"1970/01/01 00:00:00+00","GlobalID":"{6CBA770C-943B-4020-B1AE-30D96E1E5B66}"}},{"type":"Feature","geometry":{"type":"Point","coordinates":[-80.7714779323204,35.0614884106647]},"properties":{"name":"The Fresh Market","OBJECTID":236740,"FULL_ADDRESS":"10828 PROVIDENCE RD","PID":22915126,"BWID":301949114,"Address":460194,"DateAdded":"2019/01/01 00:00:00+00","DateDeleted":"1970/01/01 00:00:00+00","GlobalID":"{F00183F1-05B9-47AA-875F-EAA68C20CA52}"}},{"type":"Feature","geometry":{"type":"Point","coordinates":[-80.7708706584263,35.052447601319]},"properties":{"name":"Harris Teeter","OBJECTID":236835,"FULL_ADDRESS":"11516 PROVIDENCE RD","PID":22917108,"Address":374224,"DateAdded":"1970/01/01 00:00:00+00","DateDeleted":"2020/10/15 00:00:00+00","GlobalID":"{2DD3C1EB-F0CC-45A4-BFFD-F68268727C38}"}},{"type":"Feature","geometry":{"type":"Point","coordinates":[-80.6570668347215,35.2523870329585]},"properties":{"name":"Food Lion","OBJECTID":243909,"FULL_ADDRESS":"8010 CAMBRIDGE COMMONS DR","PID":11107499,"BWID":300178583,"Address":334456,"DateAdded":"2019/01/01 00:00:00+00","DateDeleted":"1970/01/01 00:00:00+00","GlobalID":"{42FC31AF-A428-4441-AE5B-8C4EF015AAD9}"}},{"type":"Feature","geometry":{"type":"Point","coordinates":[-80.853275801986,35.1995741509793]},"properties":{"name":"Food Lion","OBJECTID":246009,"FULL_ADDRESS":"2226 PARK RD","PID":12110103,"BWID":301151626,"Address":77265,"DateAdded":"2019/01/01 00:00:00+00","DateDeleted":"1970/01/01 00:00:00+00","GlobalID":"{9EE9D916-38FB-43AD-B6C4-231AC72C5116}"}},{"type":"Feature","geometry":{"type":"Point","coordinates":[-80.7581974974915,35.2954440221592]},"properties":{"name":"Walmart Supercenter","OBJECTID":249242,"FULL_ADDRESS":"7735 N TRYON ST","PID":"04722225","BWID":100035069,"Address":495143,"DateAdded":"2019/01/01 00:00:00+00","DateDeleted":"1970/01/01 00:00:00+00","GlobalID":"{315295FD-7799-44D3-8659-CC04E58F2B8A}"}},{"type":"Feature","geometry":{"type":"Point","coordinates":[-80.8144303248156,35.3341022774408]},"properties":{"name":"Harris Teeter","OBJECTID":249323,"FULL_ADDRESS":"8445 DAVIS LAKE PY","PID":"04322108","BWID":301600089,"Address":451647,"DateAdded":"2019/01/01 00:00:00+00","DateDeleted":"1970/01/01 00:00:00+00","GlobalID":"{D22B90DC-C772-4970-A194-B27CB66E87CF}"}},{"type":"Feature","geometry":{"type":"Point","coordinates":[-80.8774890996335,35.4862316851122]},"properties":{"name":"The Fresh Market","OBJECTID":252306,"FULL_ADDRESS":"20623 TORRENCE CHAPEL RD","PID":"00114508","BWID":301154216,"Address":69974,"DateAdded":"2019/01/01 00:00:00+00","DateDeleted":"1970/01/01 00:00:00+00","GlobalID":"{D5EE6C36-6759-4525-87C4-3C28E604A35E}"}},{"type":"Feature","geometry":{"type":"Point","coordinates":[-80.7547953300974,35.336889128436]},"properties":{"name":"Trader Joe's","OBJECTID":252550,"FULL_ADDRESS":"1820 EAST ARBORS DR","PID":"02901174","BWID":300999351,"Address":492806,"DateAdded":"2019/01/01 00:00:00+00","DateDeleted":"1970/01/01 00:00:00+00","GlobalID":"{5C1D22C3-AA6E-4F16-B85E-EAFBD802080F}"}},{"type":"Feature","geometry":{"type":"Point","coordinates":[-80.8438750842032,35.2311099601718]},"properties":{"name":"Harris Teeter","OBJECTID":252558,"FULL_ADDRESS":"325 W 6TH ST","PID":"07801C93","BWID":300992448,"Address":105471,"DateAdded":"2019/01/01 00:00:00+00","DateDeleted":"1970/01/01 00:00:00+00","GlobalID":"{746395A7-4B77-4C49-804F-EAEE1B1750AC}"}},{"type":"Feature","geometry":{"type":"Point","coordinates":[-80.866670929191,35.4038409432476]},"properties":{"name":"Earth Fare","OBJECTID":252775,"FULL_ADDRESS":"14021 BOREN ST","PID":"01716518","Address":531329,"DateAdded":"1970/01/01 00:00:00+00","DateDeleted":"2020/10/15 00:00:00+00","GlobalID":"{6CA2D9F8-B750-4121-AC1C-EC0235A487D6}"}},{"type":"Feature","geometry":{"type":"Point","coordinates":[-80.8892006941107,35.2401660558643]},"properties":{"name":"Save-A-Lot","OBJECTID":253467,"FULL_ADDRESS":"3021 FREEDOM DR","PID":"06713102","BWID":300702459,"Address":421644,"DateAdded":"2019/01/01 00:00:00+00","DateDeleted":"1970/01/01 00:00:00+00","GlobalID":"{6A9C9BA5-D32E-42D3-BAB4-9C2499978629}"}},{"type":"Feature","geometry":{"type":"Point","coordinates":[-80.8481205225065,35.0242750763024]},"properties":{"name":"Harris Teeter","OBJECTID":257762,"FULL_ADDRESS":"16625 LANCASTER HY","PID":22308103,"Address":487180,"DateAdded":"2019/01/01 00:00:00+00","DateDeleted":"1970/01/01 00:00:00+00","GlobalID":"{205307FD-409F-4A5D-B9B5-592D73E559F5}"}},{"type":"Feature","geometry":{"type":"Point","coordinates":[-80.8600036313498,35.3502835430044]},"properties":{"name":"Target","OBJECTID":257813,"FULL_ADDRESS":"9841 NORTHLAKE CENTRE PY","PID":"02529126","BWID":301420704,"Address":483734,"DateAdded":"2019/01/01 00:00:00+00","DateDeleted":"1970/01/01 00:00:00+00","GlobalID":"{FB67BB1C-9BF8-4117-83F4-FBA9A528E2DA}"}},{"type":"Feature","geometry":{"type":"Point","coordinates":[-80.7521039299507,35.2492941984868]},"properties":{"name":"Wow Supermarket 2","OBJECTID":258368,"FULL_ADDRESS":"6129 THE PLAZA","PID":"09709420","BWID":300185180,"Address":425073,"DateAdded":"2019/01/01 00:00:00+00","DateDeleted":"1970/01/01 00:00:00+00","GlobalID":"{4E8C4204-078F-4480-BD8E-8B4D170CC4AA}"}},{"type":"Feature","geometry":{"type":"Point","coordinates":[-80.8934083781133,35.1338559482686]},"properties":{"name":"Compare Foods","OBJECTID":258572,"FULL_ADDRESS":"201 W ARROWOOD RD","PID":20318907,"BWID":100005963,"Address":66991,"DateAdded":"2019/01/01 00:00:00+00","DateDeleted":"1970/01/01 00:00:00+00","GlobalID":"{AE6EF2C8-ECD5-49B1-B95F-CCD009EDC03A}"}},{"type":"Feature","geometry":{"type":"Point","coordinates":[-80.7570009652703,35.2076727121561]},"properties":{"name":"Compare Foods","OBJECTID":264604,"FULL_ADDRESS":"3600 N SHARON AMITY RD","PID":10301136,"BWID":301222563,"Address":112191,"DateAdded":"2019/01/01 00:00:00+00","DateDeleted":"1970/01/01 00:00:00+00","GlobalID":"{0F1F8A6F-5B5B-41D1-A09F-63B88BD843A3}"}},{"type":"Feature","geometry":{"type":"Point","coordinates":[-80.8283017865799,35.3711441125423]},"properties":{"name":"Walmart Supercenter","OBJECTID":265828,"FULL_ADDRESS":"11145 BRYTON TOWN CENTER DR","PID":"01913149","Address":535460,"DateAdded":"2019/01/01 00:00:00+00","DateDeleted":"1970/01/01 00:00:00+00","GlobalID":"{19487AD1-7202-47BD-9A59-E2F6F27602D0}"}},{"type":"Feature","geometry":{"type":"Point","coordinates":[-80.873972974255,35.077787513584]},"properties":{"name":"Sam's Club","OBJECTID":266487,"FULL_ADDRESS":"11425 CAROLINA PLACE PY","PID":22151206,"BWID":100028476,"Address":18412,"DateAdded":"2019/01/01 00:00:00+00","DateDeleted":"1970/01/01 00:00:00+00","GlobalID":"{D6DB5D1E-B2C2-47BD-86EA-DB1D33D77F4C}"}},{"type":"Feature","geometry":{"type":"Point","coordinates":[-80.7962482569047,35.3355774767626]},"properties":{"name":"Food Lion","OBJECTID":267575,"FULL_ADDRESS":"6430 W SUGAR CREEK RD","PID":"04309122","BWID":300384526,"Address":393847,"DateAdded":"2019/01/01 00:00:00+00","DateDeleted":"1970/01/01 00:00:00+00","GlobalID":"{4B18DDAE-6E72-463E-937C-38369C259857}"}},{"type":"Feature","geometry":{"type":"Point","coordinates":[-80.6843919502833,35.1394319974185]},"properties":{"name":"Food Lion","OBJECTID":268694,"FULL_ADDRESS":"3609 MATTHEWS-MINT HILL RD","PID":13533157,"BWID":100028285,"Address":384351,"DateAdded":"2019/01/01 00:00:00+00","DateDeleted":"1970/01/01 00:00:00+00","GlobalID":"{3E75D932-6FA5-4AC3-A846-005C54BC118B}"}},{"type":"Feature","geometry":{"type":"Point","coordinates":[-80.8685953935293,35.0921794325516]},"properties":{"name":"Aldi","OBJECTID":269390,"FULL_ADDRESS":"10629 PARK RD","PID":22119231,"Address":531150,"DateAdded":"2019/01/01 00:00:00+00","DateDeleted":"1970/01/01 00:00:00+00","GlobalID":"{8FC031FF-09C7-452B-A236-92473CD95397}"}},{"type":"Feature","geometry":{"type":"Point","coordinates":[-80.7981896089719,35.2894274139097]},"properties":{"name":"Food Lion","OBJECTID":269805,"FULL_ADDRESS":"5624 N GRAHAM ST","PID":"04510109","BWID":300752959,"Address":468943,"DateAdded":"2019/01/01 00:00:00+00","DateDeleted":"1970/01/01 00:00:00+00","GlobalID":"{ACC589C3-3295-4C2E-9FF8-528F9994CFC9}"}},{"type":"Feature","geometry":{"type":"Point","coordinates":[-80.8867194639849,35.3444927858504]},"properties":{"name":"Food Lion","OBJECTID":270180,"FULL_ADDRESS":"8138 MT HOLLY-HUNTERSVILLE RD","PID":"03327110","BWID":301184091,"Address":512933,"DateAdded":"2019/01/01 00:00:00+00","DateDeleted":"1970/01/01 00:00:00+00","GlobalID":"{4E7543A6-0A3B-4D23-861A-9DEB6270C2BA}"}},{"type":"Feature","geometry":{"type":"Point","coordinates":[-80.945979666697,35.3293407048574]},"properties":{"name":"Walmart Supercenter","OBJECTID":285627,"FULL_ADDRESS":"9820 CALLABRIDGE CT","PID":"02326116","BWID":300989015,"Address":388468,"DateAdded":"2019/01/01 00:00:00+00","DateDeleted":"1970/01/01 00:00:00+00","GlobalID":"{23D0431E-F0B7-4E66-A5D1-19077F635117}"}},{"type":"Feature","geometry":{"type":"Point","coordinates":[-80.859222678834,35.3041239902374]},"properties":{"name":"Aldi","OBJECTID":286630,"FULL_ADDRESS":"4120 SUNSET RD","PID":"03929124","Address":435526,"DateAdded":"2019/01/01 00:00:00+00","DateDeleted":"1970/01/01 00:00:00+00","GlobalID":"{E5A04759-B4F8-4B09-AABE-1C3F652908BF}"}},{"type":"Feature","geometry":{"type":"Point","coordinates":[-80.8583039785468,35.1165465761702]},"properties":{"name":"Harris Teeter","OBJECTID":291636,"FULL_ADDRESS":"8538 PARK RD","PID":20715301,"BWID":100036543,"Address":436370,"DateAdded":"2019/01/01 00:00:00+00","DateDeleted":"1970/01/01 00:00:00+00","GlobalID":"{618F289B-1569-4625-9C79-1D070FA1046B}"}},{"type":"Feature","geometry":{"type":"Point","coordinates":[-80.7329747591379,35.0827518030356]},"properties":{"name":"Harris Teeter","OBJECTID":295080,"FULL_ADDRESS":"3100 WEDDINGTON RD","PID":22756103,"BWID":100024823,"Address":374662,"DateAdded":"2019/01/01 00:00:00+00","DateDeleted":"1970/01/01 00:00:00+00","GlobalID":"{FDFC3FE9-6093-4AA0-8982-193E0F04700E}"}},{"type":"Feature","geometry":{"type":"Point","coordinates":[-80.849973548383,35.5017902351711]},"properties":{"name":"Healthy Home Market","OBJECTID":295820,"FULL_ADDRESS":"261 GRIFFITH ST","PID":"00325506","Address":88004,"DateAdded":"2019/01/01 00:00:00+00","DateDeleted":"1970/01/01 00:00:00+00","GlobalID":"{11CA6EF4-FFE1-4FC6-A83A-C9F35278E8EB}"}},{"type":"Feature","geometry":{"type":"Point","coordinates":[-80.7658789092162,35.2775649293943]},"properties":{"name":"Around the World Market","OBJECTID":299309,"FULL_ADDRESS":"6514 N TRYON ST","BWID":301759481,"Address":171090,"DateAdded":"2019/01/01 00:00:00+00","DateDeleted":"1970/01/01 00:00:00+00","GlobalID":"{19A22332-B767-42DA-A3D9-60169736DF51}"}},{"type":"Feature","geometry":{"type":"Point","coordinates":[-80.6463816899021,35.1802733467699]},"properties":{"name":"Aldi","OBJECTID":300005,"FULL_ADDRESS":"8000 BLAIR RD","PID":13901146,"Address":196601,"DateAdded":"2019/01/01 00:00:00+00","DateDeleted":"1970/01/01 00:00:00+00","GlobalID":"{582C375C-DF49-4698-B4B4-9BA068F2D8BF}"}},{"type":"Feature","geometry":{"type":"Point","coordinates":[-80.7861674150474,35.372505462017]},"properties":{"name":"Aldi","OBJECTID":303297,"FULL_ADDRESS":"5817 PROSPERITY CHURCH RD","PID":"02756109","Address":435534,"DateAdded":"2019/01/01 00:00:00+00","DateDeleted":"1970/01/01 00:00:00+00","GlobalID":"{F3734C74-8F03-4E33-9976-D13228C73F2E}"}},{"type":"Feature","geometry":{"type":"Point","coordinates":[-80.7858830197718,35.366341855923]},"properties":{"name":"Bi-Lo","OBJECTID":303339,"FULL_ADDRESS":"5336 DOCIA CROSSING RD","PID":"02932134","Address":383921,"DateAdded":"1970/01/01 00:00:00+00","DateDeleted":"2020/10/15 00:00:00+00","GlobalID":"{8261280C-2E16-4D6C-AA6A-7497CC1C577A}"}},{"type":"Feature","geometry":{"type":"Point","coordinates":[-80.8266260961415,35.1960342699831]},"properties":{"name":"Harris Teeter","OBJECTID":315414,"FULL_ADDRESS":"1015 PROVIDENCE RD","PID":15510165,"BWID":100036513,"Address":414641,"DateAdded":"2019/01/01 00:00:00+00","DateDeleted":"1970/01/01 00:00:00+00","GlobalID":"{F7021D97-6CA6-4939-A693-0713A390F2AE}"}},{"type":"Feature","geometry":{"type":"Point","coordinates":[-80.7512247277881,35.2947251754972]},"properties":{"name":"Patel Brothers","OBJECTID":315776,"FULL_ADDRESS":"8109 UNIVERSITY CITY BV","PID":"04930128","Address":435612,"DateAdded":"2019/01/01 00:00:00+00","DateDeleted":"1970/01/01 00:00:00+00","GlobalID":"{2BD9DCA7-6132-437E-B846-CE3383EB6164}"}},{"type":"Feature","geometry":{"type":"Point","coordinates":[-80.764902531185,35.341530814266]},"properties":{"name":"Harris Teeter","OBJECTID":316060,"FULL_ADDRESS":"2720 W MALLARD CREEK CHURCH RD","PID":"02901106","BWID":301183226,"Address":386354,"DateAdded":"2019/01/01 00:00:00+00","DateDeleted":"1970/01/01 00:00:00+00","GlobalID":"{ADB655F9-DF56-4BE5-828C-AA0A90669874}"}},{"type":"Feature","geometry":{"type":"Point","coordinates":[-80.6594628283632,35.1709063332703]},"properties":{"name":"Publix ","OBJECTID":319184,"FULL_ADDRESS":"6828 MATTHEWS-MINT HILL RD","PID":19518256,"BWID":301938910,"Address":546238,"DateAdded":"2019/01/01 00:00:00+00","DateDeleted":"1970/01/01 00:00:00+00","GlobalID":"{F4859069-8DA9-4041-8CBD-FC0914C16EC2}"}},{"type":"Feature","geometry":{"type":"Point","coordinates":[-80.8104468057757,35.2197465200846]},"properties":{"name":"Harris Teeter","OBJECTID":320519,"FULL_ADDRESS":"1704 CENTRAL AV","PID":12901102,"BWID":100036512,"Address":54324,"DateAdded":"2019/01/01 00:00:00+00","DateDeleted":"1970/01/01 00:00:00+00","GlobalID":"{7CA4897A-998D-452C-AA20-3DF8EDBC09FD}"}},{"type":"Feature","geometry":{"type":"Point","coordinates":[-80.8300778371448,35.1474589355623]},"properties":{"name":"Whole Foods Market","OBJECTID":327506,"FULL_ADDRESS":"6610 FAIRVIEW RD","PID":18313324,"BWID":301628370,"Address":533197,"DateAdded":"2019/01/01 00:00:00+00","DateDeleted":"1970/01/01 00:00:00+00","GlobalID":"{DF70D4BB-50A3-404B-9419-0EC1FACBC115}"}},{"type":"Feature","geometry":{"type":"Point","coordinates":[-80.7097874845865,35.1248775977673]},"properties":{"name":"Harris Teeter","OBJECTID":327516,"FULL_ADDRESS":"1811 MATTHEWS TOWNSHIP PY","PID":19329218,"BWID":100024822,"Address":58228,"DateAdded":"2019/01/01 00:00:00+00","DateDeleted":"1970/01/01 00:00:00+00","GlobalID":"{D713CCB8-47A9-4DAA-935D-6BB2EA4DA8CA}"}},{"type":"Feature","geometry":{"type":"Point","coordinates":[-80.6444361740621,35.1813029172987]},"properties":{"name":"Food Lion","OBJECTID":333658,"FULL_ADDRESS":"8118 BLAIR RD","PID":13901153,"BWID":300178579,"Address":418386,"DateAdded":"2019/01/01 00:00:00+00","DateDeleted":"1970/01/01 00:00:00+00","GlobalID":"{011A7A99-6A2E-440E-9CC4-39EBDE0EC652}"}},{"type":"Feature","geometry":{"type":"Point","coordinates":[-80.7395503898065,35.1379305207922]},"properties":{"name":"Food Lion","OBJECTID":334262,"FULL_ADDRESS":"9820 MONROE RD","PID":21322104,"BWID":300166790,"Address":425233,"DateAdded":"2019/01/01 00:00:00+00","DateDeleted":"1970/01/01 00:00:00+00","GlobalID":"{AF37040B-DF60-4D1E-89E4-03BD491118A5}"}},{"type":"Feature","geometry":{"type":"Point","coordinates":[-80.85799299788,35.0916839368795]},"properties":{"name":"Food Lion","OBJECTID":336013,"FULL_ADDRESS":"10124 JOHNSTON RD","PID":22119138,"BWID":300299915,"Address":390564,"DateAdded":"2019/01/01 00:00:00+00","DateDeleted":"1970/01/01 00:00:00+00","GlobalID":"{A33C75C5-2482-4891-8B96-61092D4B7BDA}"}},{"type":"Feature","geometry":{"type":"Point","coordinates":[-80.8594361874008,35.0904667965718]},"properties":{"name":"Walmart Neighborhood Market","OBJECTID":336171,"FULL_ADDRESS":"8322 PINEVILLE-MATTHEWS RD #205","PID":22119144,"Address":411192,"DateAdded":"2019/01/01 00:00:00+00","DateDeleted":"1970/01/01 00:00:00+00","GlobalID":"{2A682289-2687-4311-8B86-6ABB54E8DE11}"}},{"type":"Feature","geometry":{"type":"Point","coordinates":[-80.8606237641178,35.3055947366273]},"properties":{"name":"Food Lion","OBJECTID":337192,"FULL_ADDRESS":"4001 SUNSET RD","PID":"03711203","BWID":300178568,"Address":423081,"DateAdded":"2019/01/01 00:00:00+00","DateDeleted":"1970/01/01 00:00:00+00","GlobalID":"{8B2C2876-79D2-4060-8AEC-7C0C184D51CB}"}},{"type":"Feature","geometry":{"type":"Point","coordinates":[-80.786645131102,35.372985711565]},"properties":{"name":"Publix","OBJECTID":337416,"FULL_ADDRESS":"5208 RIDGE RD","PID":"02756104","Address":562311,"DateAdded":"2019/01/01 00:00:00+00","DateDeleted":"1970/01/01 00:00:00+00","GlobalID":"{9C36D7E3-9DFE-497F-A8E6-DDA1F0D6CFE0}"}},{"type":"Feature","geometry":{"type":"Point","coordinates":[-80.8559818194387,35.4807372777596]},"properties":{"name":"Harris Teeter","OBJECTID":340259,"FULL_ADDRESS":"21720 CATAWBA AV","PID":"00751199","Address":547512,"DateAdded":"2019/01/01 00:00:00+00","DateDeleted":"1970/01/01 00:00:00+00","GlobalID":"{A0585389-23E6-4F28-8A08-0B37EA983D81}"}},{"type":"Feature","geometry":{"type":"Point","coordinates":[-80.7829441532131,35.3715432092345]},"properties":{"name":"Harris Teeter","OBJECTID":341435,"FULL_ADDRESS":"5810 HIGHLAND SHOPPES DR","PID":"02931104","BWID":100036951,"Address":374638,"DateAdded":"2019/01/01 00:00:00+00","DateDeleted":"1970/01/01 00:00:00+00","GlobalID":"{D5ED8DA8-E36B-45DE-BD48-EA055772052D}"}},{"type":"Feature","geometry":{"type":"Point","coordinates":[-80.9730556536332,35.1604348338278]},"properties":{"name":"Harris Teeter","OBJECTID":346741,"FULL_ADDRESS":"4821 BEREWICK TOWN CENTER DR","PID":19923703,"BWID":302176624,"Address":556017,"DateAdded":"2019/01/01 00:00:00+00","DateDeleted":"1970/01/01 00:00:00+00","GlobalID":"{AEC9BD64-FCCA-4DFE-A2FE-0DA5902EDB7D}"}},{"type":"Feature","geometry":{"type":"Point","coordinates":[-80.7129285666524,35.3341523786151]},"properties":{"name":"Walmart Neighborhood Market","OBJECTID":347468,"FULL_ADDRESS":"11530 N TRYON ST","PID":"05141116","BWID":302170423,"Address":565230,"DateAdded":"2019/01/01 00:00:00+00","DateDeleted":"1970/01/01 00:00:00+00","GlobalID":"{413C0371-6969-461C-AC5D-D356DA9E8FA0}"}},{"type":"Feature","geometry":{"type":"Point","coordinates":[-80.8497408329791,35.0427109670518]},"properties":{"name":"Publix","OBJECTID":347473,"FULL_ADDRESS":"11222 PROVIDENCE RD W","PID":22313497,"BWID":301816711,"Address":541942,"DateAdded":"2019/01/01 00:00:00+00","DateDeleted":"1970/01/01 00:00:00+00","GlobalID":"{65D2ED3B-B650-4360-BCD8-7B50B5BE715E}"}},{"type":"Feature","geometry":{"type":"Point","coordinates":[-80.8349856965341,35.2137917343294]},"properties":{"name":"BJ's Wholesale Club","OBJECTID":351155,"FULL_ADDRESS":"721 CHARLOTTETOWNE AV","PID":"12509C99","BWID":300989746,"Address":530797,"DateAdded":"2019/01/01 00:00:00+00","DateDeleted":"1970/01/01 00:00:00+00","GlobalID":"{4BB12923-4E87-496A-B199-B58456526024}"}},{"type":"Feature","geometry":{"type":"Point","coordinates":[-80.7763858795789,35.1994148386916]},"properties":{"name":"Walmart Supercenter","OBJECTID":354061,"FULL_ADDRESS":"3850 E INDEPENDENCE BV","PID":16102711,"BWID":300197339,"Address":487283,"DateAdded":"2019/01/01 00:00:00+00","DateDeleted":"1970/01/01 00:00:00+00","GlobalID":"{6319FE2C-B6F5-47BB-9FBB-8E936A64AE6E}"}},{"type":"Feature","geometry":{"type":"Point","coordinates":[-80.8494848950379,35.1616397050357]},"properties":{"name":"Harris Teeter","OBJECTID":356065,"FULL_ADDRESS":"5030 PARK RD","PID":17118145,"BWID":100036521,"Address":296833,"DateAdded":"2019/01/01 00:00:00+00","DateDeleted":"1970/01/01 00:00:00+00","GlobalID":"{15652F33-B86D-4D59-9854-0A08534FA721}"}},{"type":"Feature","geometry":{"type":"Point","coordinates":[-80.8955033824987,35.4435768235921]},"properties":{"name":"Harris Teeter","OBJECTID":356799,"FULL_ADDRESS":"7715 REGENCY PARK DR","PID":"00506108","BWID":301140688,"Address":339736,"DateAdded":"2019/01/01 00:00:00+00","DateDeleted":"1970/01/01 00:00:00+00","GlobalID":"{6EC9D0A6-8866-4B2F-9D3D-EFE0A9400837}"}},{"type":"Feature","geometry":{"type":"Point","coordinates":[-80.7319674864643,35.1389867996285]},"properties":{"name":"Walmart Supercenter","OBJECTID":357782,"FULL_ADDRESS":"1830 GALLERIA BV","PID":19310128,"BWID":300168613,"Address":59665,"DateAdded":"2019/01/01 00:00:00+00","DateDeleted":"1970/01/01 00:00:00+00","GlobalID":"{33885DA6-A4C9-4E1E-8035-70EA208069DC}"}},{"type":"Feature","geometry":{"type":"Point","coordinates":[-80.8346796982585,35.153268362925]},"properties":{"name":"Reids Fine Foods","OBJECTID":361722,"FULL_ADDRESS":"4331 BARCLAY DOWNS DR","BWID":302061472,"Address":455719,"DateAdded":"2019/01/01 00:00:00+00","DateDeleted":"1970/01/01 00:00:00+00","GlobalID":"{111C47DF-B793-4E4E-8816-97D4550E0FC2}"}},{"type":"Feature","geometry":{"type":"Point","coordinates":[-80.8531002485456,35.4111023156058]},"properties":{"name":"Food Lion ","OBJECTID":362497,"FULL_ADDRESS":"706 GILEAD RD","PID":"01712135","BWID":300159722,"Address":399054,"DateAdded":"2019/01/01 00:00:00+00","DateDeleted":"1970/01/01 00:00:00+00","GlobalID":"{9012F3ED-0EDD-499D-BD7B-AD36F3484834}"}},{"type":"Feature","geometry":{"type":"Point","coordinates":[-80.9403827007265,35.3279859949751]},"properties":{"name":"Harris Teeter","OBJECTID":364004,"FULL_ADDRESS":"4701 SMITH FARM RD","PID":"03304134","BWID":100036977,"Address":438687,"DateAdded":"2019/01/01 00:00:00+00","DateDeleted":"1970/01/01 00:00:00+00","GlobalID":"{01F0C8C2-8BDE-489F-A52D-7841A6DA796B}"}},{"type":"Feature","geometry":{"type":"Point","coordinates":[-80.9908643542647,35.1032652145007]},"properties":{"name":"Harris Teeter","OBJECTID":366015,"FULL_ADDRESS":"13000 S TRYON ST #G","PID":19955109,"BWID":100036545,"Address":483460,"DateAdded":"2019/01/01 00:00:00+00","DateDeleted":"1970/01/01 00:00:00+00","GlobalID":"{00B2E734-7972-425D-9C80-432E3475983D}"}},{"type":"Feature","geometry":{"type":"Point","coordinates":[-80.7673211784139,35.053235717871]},"properties":{"name":"Whole Foods","OBJECTID":368030,"FULL_ADDRESS":"7221 WAVERLY WALK AV","PID":23113120,"BWID":302237004,"Address":557212,"DateAdded":"2019/01/01 00:00:00+00","DateDeleted":"1970/01/01 00:00:00+00","GlobalID":"{EE1DF898-A439-4A66-AA0E-4958C149E432}"}},{"type":"Feature","geometry":{"type":"Point","coordinates":[-80.8245110343566,35.157181594994]},"properties":{"name":"Earth Fare","OBJECTID":375641,"FULL_ADDRESS":"721 GOVERNOR MORRISON ST","PID":"17709C97","Address":471649,"DateAdded":"1970/01/01 00:00:00+00","DateDeleted":"2020/10/15 00:00:00+00","GlobalID":"{566C9696-352F-4C60-8542-388FE3E679C6}"}},{"type":"Feature","geometry":{"type":"Point","coordinates":[-80.8355819438295,35.2116335852642]},"properties":{"name":"Trader Joe's","OBJECTID":375749,"FULL_ADDRESS":"1133 METROPOLITAN AV","PID":"12522C97","BWID":301081485,"Address":388259,"DateAdded":"2019/01/01 00:00:00+00","DateDeleted":"1970/01/01 00:00:00+00","GlobalID":"{69A9FD7F-E779-473A-99A3-7FF2465974E5}"}},{"type":"Feature","geometry":{"type":"Point","coordinates":[-80.7825210634178,35.096628610587]},"properties":{"name":"Walmart","OBJECTID":377028,"FULL_ADDRESS":"3217 PINEVILLE-MATTHEWS RD","BWID":100037817,"Address":374515,"DateAdded":"2019/01/01 00:00:00+00","DateDeleted":"1970/01/01 00:00:00+00","GlobalID":"{F1F389FE-8DAE-47B9-BFB1-A4B511AE5BEE}"}},{"type":"Feature","geometry":{"type":"Point","coordinates":[-80.9721912210707,35.1603639371912]},"properties":{"name":"Harris Teeter","OBJECTID":380792,"FULL_ADDRESS":"4815 BEREWICK TOWN CENTER DR #J","PID":19923703,"BWID":302176624,"Address":581445,"DateAdded":"1970/01/01 00:00:00+00","DateDeleted":"2020/10/15 00:00:00+00","GlobalID":"{07B0F458-36B0-4294-988D-90F30687DD02}"}},{"type":"Feature","geometry":{"type":"Point","coordinates":[-80.8847411600226,35.1612370802226]},"properties":{"name":"Costco","OBJECTID":383505,"FULL_ADDRESS":"500 TYVOLA RD","PID":16914112,"BWID":100043279,"Address":140005,"DateAdded":"2019/01/01 00:00:00+00","DateDeleted":"1970/01/01 00:00:00+00","GlobalID":"{B3EBAC9A-AE61-4A0C-9CCB-A7E8CF46D1C5}"}},{"type":"Feature","geometry":{"type":"Point","coordinates":[-80.8458506785281,35.2204472584845]},"properties":{"name":"Whole Foods","OBJECTID":384698,"FULL_ADDRESS":"400 E STONEWALL ST","BWID":302367905,"Address":534290,"DateAdded":"2019/01/01 00:00:00+00","DateDeleted":"1970/01/01 00:00:00+00","GlobalID":"{4CD6FB33-7478-48F1-BBA6-3E626C6995C5}"}},{"type":"Feature","geometry":{"type":"Point","coordinates":[-80.8659594709199,35.2003817799661]},"properties":{"name":"Harris Teeter","OBJECTID":388487,"FULL_ADDRESS":"2715 SOUTH BV","PID":14703201,"BWID":302220990,"Address":433738,"DateAdded":"2019/01/01 00:00:00+00","DateDeleted":"1970/01/01 00:00:00+00","GlobalID":"{8DFB24DC-7392-4DC0-94D5-317A5588AE7A}"}},{"type":"Feature","geometry":{"type":"Point","coordinates":[-80.7911514579865,35.2560731114263]},"properties":{"name":"International Supermarket","OBJECTID":396324,"FULL_ADDRESS":"4520 N TRYON ST","PID":"09105147","BWID":300157578,"Address":437972,"DateAdded":"2019/01/01 00:00:00+00","DateDeleted":"1970/01/01 00:00:00+00","GlobalID":"{DD18A59F-8503-4801-A193-F389369ECD3A}"}},{"type":"Feature","geometry":{"type":"Point","coordinates":[-80.9873323956177,35.3029035069412]},"properties":{"name":"Food Lion ","OBJECTID":397855,"FULL_ADDRESS":"237 MT HOLLY-HUNTERSVILLE RD","PID":"03114110","Address":539022,"DateAdded":"2019/01/01 00:00:00+00","DateDeleted":"1970/01/01 00:00:00+00","GlobalID":"{A806588B-83E8-463F-8C01-C9D02E7D3E29}"}},{"type":"Feature","geometry":{"type":"Point","coordinates":[-80.7997418848441,35.1777930582422]},"properties":{"name":"Publix","OBJECTID":480710,"FULL_ADDRESS":"4425 RANDOLPH RD #105","BWID":302370799,"Address":530729,"DateAdded":"2019/01/01 00:00:00+00","DateDeleted":"1970/01/01 00:00:00+00","GlobalID":"{8D7166B6-C401-4525-8BC9-A27B3E841CDA}"}},{"type":"Feature","geometry":{"type":"Point","coordinates":[-80.8394489235976,35.1743867908092]},"properties":{"name":"Reids Fine Foods","OBJECTID":482594,"FULL_ADDRESS":"2823 SELWYN AV #E","BWID":100006901,"Address":531880,"DateAdded":"2019/01/01 00:00:00+00","DateDeleted":"1970/01/01 00:00:00+00","GlobalID":"{C4C6D8D8-4346-4B90-BE9C-6BAE1021CFE8}"}},{"type":"Feature","geometry":{"type":"Point","coordinates":[-80.7376591252942,35.1628392240967]},"properties":{"name":"Super G Market","OBJECTID":496343,"FULL_ADDRESS":"7323 E INDEPENDENCE BV #F4","BWID":301305555,"Address":534218,"DateAdded":"2019/01/01 00:00:00+00","DateDeleted":"1970/01/01 00:00:00+00","GlobalID":"{B76362C4-3726-44C7-A9F3-48F314447027}"}}]}